City_ID,City,Country,Lat,Lng,Max Temp,Humidity,Cloudiness,Wind Speed,Current Description,Date
0,Severo-Kurilsk,RU,50.6789,156.125,35.64,63,59,26.42,broken clouds,2021-11-16 01:46:34
1,Serenje,ZM,-13.2325,30.2352,60.94,75,1,4.03,clear sky,2021-11-16 01:46:35
2,New Norfolk,AU,-42.7826,147.0587,56.75,61,96,3.0,overcast clouds,2021-11-16 01:46:35
3,Punta Arenas,CL,-53.15,-70.9167,44.71,65,20,17.27,few clouds,2021-11-16 01:46:35
4,Chancay,PE,-11.5714,-77.2672,66.33,83,99,6.31,overcast clouds,2021-11-16 01:46:36
5,Saldanha,ZA,-33.0117,17.9442,63.0,89,62,9.33,broken clouds,2021-11-16 01:46:36
6,Lompoc,US,34.6391,-120.4579,65.1,90,90,3.44,mist,2021-11-16 01:46:37
7,Xiaoshi,CN,41.2971,124.1209,32.02,46,0,0.6,clear sky,2021-11-16 01:46:37
8,Ushuaia,AR,-54.8,-68.3,44.26,65,75,21.85,broken clouds,2021-11-16 01:46:37
9,Cherskiy,RU,68.75,161.3,14.56,85,100,6.35,overcast clouds,2021-11-16 01:46:38
10,Albany,US,42.6001,-73.9662,38.75,78,13,1.99,light rain,2021-11-16 01:46:39
11,Tuktoyaktuk,CA,69.4541,-133.0374,-5.8,84,20,8.05,few clouds,2021-11-16 01:46:40
12,Jamestown,US,42.097,-79.2353,38.52,100,90,4.0,mist,2021-11-16 01:46:41
13,Bella Union,UY,-30.2752,-57.6007,76.12,57,23,2.98,few clouds,2021-11-16 01:46:41
14,Constitucion,CL,-35.3333,-72.4167,56.03,55,0,13.96,clear sky,2021-11-16 01:45:57
15,Hilo,US,19.7297,-155.09,84.27,86,90,12.66,light rain,2021-11-16 01:43:14
16,Coquimbo,CL,-29.9533,-71.3436,58.73,77,0,6.91,clear sky,2021-11-16 01:46:42
17,Kodiak,US,57.79,-152.4072,24.31,63,1,3.44,clear sky,2021-11-16 01:46:43
18,Praia Da Vitoria,PT,38.7333,-27.0667,66.76,88,75,14.2,broken clouds,2021-11-16 01:46:43
19,Bell Ville,AR,-32.6259,-62.6887,67.8,88,71,19.66,broken clouds,2021-11-16 01:46:43
20,Maragogi,BR,-9.0122,-35.2225,78.6,81,51,11.25,broken clouds,2021-11-16 01:46:44
21,Bredasdorp,ZA,-34.5322,20.0403,61.29,83,100,5.97,light rain,2021-11-16 01:46:44
22,Lagoa,PT,39.05,-27.9833,66.16,85,0,17.38,clear sky,2021-11-16 01:46:45
23,Cabo San Lucas,MX,22.8909,-109.9124,83.5,74,100,2.93,overcast clouds,2021-11-16 01:46:23
24,Chuy,UY,-33.6971,-53.4616,65.95,91,2,9.86,light rain,2021-11-16 01:46:45
25,Qaanaaq,GL,77.484,-69.3632,1.9,83,100,9.48,overcast clouds,2021-11-16 01:46:46
26,Hobart,AU,-42.8794,147.3294,57.11,59,75,1.99,broken clouds,2021-11-16 01:46:46
27,Cape Town,ZA,-33.9258,18.4232,67.08,79,75,4.61,broken clouds,2021-11-16 01:41:58
28,Kapaa,US,22.0752,-159.319,82.38,77,75,1.01,broken clouds,2021-11-16 01:46:47
29,Avarua,CK,-21.2078,-159.775,77.05,78,20,4.61,few clouds,2021-11-16 01:46:47
30,Teya,RU,60.3778,92.6267,12.27,95,100,2.62,light snow,2021-11-16 01:46:48
31,Fort Nelson,CA,58.8053,-122.7002,13.59,92,90,8.05,light snow,2021-11-16 01:46:19
32,Bengkulu,ID,-3.8004,102.2655,81.37,68,97,1.63,overcast clouds,2021-11-16 01:46:48
33,Klaksvik,FO,62.2266,-6.589,49.12,93,100,37.83,overcast clouds,2021-11-16 01:46:49
34,Port Elizabeth,ZA,-33.918,25.5701,64.69,77,20,19.57,few clouds,2021-11-16 01:46:49
35,Kourou,GF,5.1552,-52.6478,82.11,86,34,6.49,scattered clouds,2021-11-16 01:46:49
36,Carnarvon,AU,-24.8667,113.6333,71.67,68,40,12.66,scattered clouds,2021-11-16 01:46:50
37,Cidreira,BR,-30.1811,-50.2056,69.3,86,36,25.21,scattered clouds,2021-11-16 01:46:50
38,Tiksi,RU,71.6872,128.8694,-7.89,92,100,5.93,overcast clouds,2021-11-16 01:46:51
39,Grootfontein,NA,-19.5667,18.1167,69.37,49,85,5.75,overcast clouds,2021-11-16 01:46:51
40,Alofi,NU,-19.0595,-169.9187,82.29,51,40,14.97,scattered clouds,2021-11-16 01:46:52
41,Mercedes,AR,-34.6515,-59.4307,72.64,84,99,6.38,overcast clouds,2021-11-16 01:46:52
42,Paita,PE,-5.0892,-81.1144,63.37,85,87,11.27,overcast clouds,2021-11-16 01:46:52
43,Arraial Do Cabo,BR,-22.9661,-42.0278,71.35,73,90,22.1,overcast clouds,2021-11-16 01:46:53
44,Mataura,NZ,-46.1927,168.8643,56.91,56,99,11.3,overcast clouds,2021-11-16 01:46:53
45,Turukhansk,RU,65.8167,87.9833,-10.41,98,99,6.67,overcast clouds,2021-11-16 01:46:54
46,Matara,LK,5.9485,80.5353,79.79,87,100,12.24,heavy intensity rain,2021-11-16 01:46:54
47,Hambantota,LK,6.1241,81.1185,77.34,100,20,5.75,few clouds,2021-11-16 01:46:54
48,Provideniya,RU,64.3833,-173.3,19.51,73,90,15.66,light snow,2021-11-16 01:46:55
49,Toora-Khem,RU,52.4675,96.11,24.44,88,100,10.16,light snow,2021-11-16 01:46:55
50,Grand Forks,US,47.9417,-97.4337,30.78,90,90,13.8,overcast clouds,2021-11-16 01:42:47
51,De Aar,ZA,-30.6497,24.0123,71.35,30,3,5.53,clear sky,2021-11-16 01:46:56
52,Mahebourg,MU,-20.4081,57.7,75.25,83,20,6.91,few clouds,2021-11-16 01:46:56
53,Torbay,CA,47.6666,-52.7314,42.58,94,90,14.97,overcast clouds,2021-11-16 01:46:20
54,Taveta,KE,-3.3963,37.6736,71.19,88,71,3.6,broken clouds,2021-11-16 01:46:57
55,Moree,AU,-29.4667,149.85,75.22,25,0,14.97,clear sky,2021-11-16 01:46:57
56,Gizo,SB,-8.103,156.8419,85.59,69,100,7.31,overcast clouds,2021-11-16 01:46:58
57,Sao Filipe,CV,14.8961,-24.4956,76.33,77,100,4.85,overcast clouds,2021-11-16 01:46:58
58,Margate,GB,51.3813,1.3862,50.88,82,47,5.03,scattered clouds,2021-11-16 01:46:59
59,Okha,RU,53.5739,142.9478,26.33,80,100,17.52,light snow,2021-11-16 01:46:59
60,Bukama,CD,-9.2,25.85,68.5,94,100,3.65,overcast clouds,2021-11-16 01:47:00
61,Clyde River,CA,70.4692,-68.5914,5.18,79,100,4.16,overcast clouds,2021-11-16 01:47:00
62,Srednekolymsk,RU,67.45,153.6833,8.04,95,100,6.8,overcast clouds,2021-11-16 01:47:00
63,Dikson,RU,73.5069,80.5464,-12.75,98,69,4.74,broken clouds,2021-11-16 01:47:01
64,Castro,BR,-24.7911,-50.0119,59.13,94,27,5.59,scattered clouds,2021-11-16 01:47:02
65,Labytnangi,RU,66.6572,66.4183,4.5,94,100,5.84,overcast clouds,2021-11-16 01:47:02
66,Finnsnes,NO,69.2296,17.9811,40.96,98,100,5.86,overcast clouds,2021-11-16 01:47:03
67,Iralaya,HN,15.0,-83.2333,78.13,87,96,11.63,overcast clouds,2021-11-16 01:47:03
68,Longyearbyen,SJ,78.2186,15.6401,21.04,63,75,23.02,broken clouds,2021-11-16 01:47:04
69,Hermanus,ZA,-34.4187,19.2345,62.91,86,100,6.22,overcast clouds,2021-11-16 01:47:04
70,Laguna,US,38.421,-121.4238,64.0,89,90,1.99,mist,2021-11-16 01:44:11
71,Rikitea,PF,-23.1203,-134.9692,73.35,88,99,12.59,light rain,2021-11-16 01:47:05
72,Kahului,US,20.8947,-156.47,81.97,81,75,18.41,light rain,2021-11-16 01:47:05
73,Lapua,FI,62.9693,23.0088,39.88,91,86,8.55,overcast clouds,2021-11-16 01:47:06
74,Okhotsk,RU,59.3833,143.3,15.84,83,38,15.37,scattered clouds,2021-11-16 01:47:06
75,Pirapozinho,BR,-22.2753,-51.5,78.28,36,0,5.75,clear sky,2021-11-16 01:47:07
76,Nizhniy Tsasuchey,RU,50.5167,115.1333,30.22,46,94,1.5,overcast clouds,2021-11-16 01:47:07
77,Balkanabat,TM,39.5108,54.3671,51.69,67,100,6.78,overcast clouds,2021-11-16 01:44:22
78,Bethel,US,41.3712,-73.414,43.11,76,90,1.99,overcast clouds,2021-11-16 01:47:08
79,Los Banos,PH,14.1667,121.1833,86.79,72,92,11.23,overcast clouds,2021-11-16 01:47:08
80,Upernavik,GL,72.7868,-56.1549,0.86,69,10,7.07,clear sky,2021-11-16 01:47:09
81,Cap Malheureux,MU,-19.9842,57.6142,75.47,76,56,3.0,broken clouds,2021-11-16 01:47:09
82,Yellowknife,CA,62.456,-114.3525,13.41,95,75,5.75,broken clouds,2021-11-16 01:46:34
83,Komsomolskiy,UZ,40.4272,71.7189,34.52,80,11,6.91,mist,2021-11-16 01:47:10
84,Seoul,KR,37.5683,126.9778,51.24,61,0,2.3,clear sky,2021-11-16 01:47:10
85,Hamilton,US,39.1834,-84.5333,39.07,87,90,4.61,overcast clouds,2021-11-16 01:43:21
86,Santa Ines,BR,-3.6667,-45.38,75.67,88,65,3.0,broken clouds,2021-11-16 01:47:11
87,Fairbanks,US,64.8378,-147.7164,-2.24,78,90,0.0,light snow,2021-11-16 01:43:49
88,Zabol,AF,32.25,67.25,37.31,36,3,4.99,clear sky,2021-11-16 01:47:11
89,Hameenlinna,FI,60.996,24.4643,41.02,93,100,8.75,overcast clouds,2021-11-16 01:47:12
90,Bluff,NZ,-46.6,168.3333,52.84,68,82,27.45,light rain,2021-11-16 01:47:12
91,Kosh-Agach,RU,50.0,88.6667,6.62,63,16,2.62,few clouds,2021-11-16 01:47:13
92,Huarmey,PE,-10.0681,-78.1522,64.38,85,45,8.7,scattered clouds,2021-11-16 01:47:13
93,Lokoja,NG,7.8024,6.743,77.4,73,38,3.29,scattered clouds,2021-11-16 01:47:13
94,Poum,NC,-20.2333,164.0167,80.47,77,60,16.24,broken clouds,2021-11-16 01:47:14
95,Manama,BH,26.2154,50.5832,73.38,74,0,3.44,clear sky,2021-11-16 01:47:14
96,Maniitsoq,GL,65.4167,-52.9,13.53,85,100,9.62,overcast clouds,2021-11-16 01:47:15
97,Oussouye,SN,12.485,-16.5469,77.18,76,77,6.98,broken clouds,2021-11-16 01:47:15
98,Mar Del Plata,AR,-38.0023,-57.5575,64.42,100,90,5.75,overcast clouds,2021-11-16 01:44:02
99,Atuona,PF,-9.8,-139.0333,78.24,74,27,12.37,scattered clouds,2021-11-16 01:47:16
100,Hofn,IS,64.2539,-15.2082,40.75,73,51,32.03,light rain,2021-11-16 01:47:16
101,Ponta Do Sol,PT,32.6667,-17.1,66.83,67,100,4.09,overcast clouds,2021-11-16 01:47:17
102,Nome,US,64.5011,-165.4064,8.67,56,1,3.44,clear sky,2021-11-16 01:47:17
103,Gat,IL,31.61,34.7642,63.39,62,65,0.69,broken clouds,2021-11-16 01:47:18
104,Ostrovnoy,RU,68.0531,39.5131,27.97,97,100,2.24,light snow,2021-11-16 01:47:18
105,Santa Lucia,ES,27.9117,-15.5407,58.32,73,20,9.22,few clouds,2021-11-16 01:47:18
106,Sapulpa,US,35.9987,-96.1142,61.2,71,1,0.0,clear sky,2021-11-16 01:46:09
107,La Ronge,CA,55.1001,-105.2842,28.65,93,90,10.36,mist,2021-11-16 01:47:19
108,Luderitz,NA,-26.6481,15.1594,63.5,71,11,13.85,few clouds,2021-11-16 01:47:19
109,Buraydah,SA,26.326,43.975,64.85,43,6,9.19,clear sky,2021-11-16 01:47:20
110,Virginia Beach,US,36.8529,-75.978,48.22,61,1,6.91,clear sky,2021-11-16 01:47:20
111,Petropavlovsk-Kamchatskiy,RU,53.0452,158.6483,34.39,41,20,24.61,few clouds,2021-11-16 01:47:20
112,Thompson,CA,55.7435,-97.8558,26.76,93,90,0.0,light snow,2021-11-16 01:47:21
113,Sena Madureira,BR,-9.0656,-68.6569,75.65,91,100,2.33,overcast clouds,2021-11-16 01:47:21
114,Kovernino,RU,57.1253,43.8142,24.01,90,98,11.9,overcast clouds,2021-11-16 01:47:22
115,Airai,TL,-8.9266,125.4092,74.37,47,44,4.23,scattered clouds,2021-11-16 01:47:22
116,Puerto Ayora,EC,-0.7393,-90.3518,67.51,84,27,7.92,scattered clouds,2021-11-16 01:47:22
117,Saint-Philippe,RE,-21.3585,55.7679,74.75,82,66,3.47,broken clouds,2021-11-16 01:47:23
118,Leningradskiy,RU,69.3833,178.4167,10.31,97,97,9.69,overcast clouds,2021-11-16 01:47:23
119,Lebu,CL,-37.6167,-73.65,51.58,75,0,21.0,clear sky,2021-11-16 01:47:24
120,Mlonggo,ID,-6.5333,110.7,79.2,80,100,2.66,light rain,2021-11-16 01:47:24
121,Hithadhoo,MV,-0.6,73.0833,82.54,72,72,16.13,broken clouds,2021-11-16 01:47:25
122,Energetik,RU,51.7445,58.7934,8.82,92,16,6.04,few clouds,2021-11-16 01:47:25
123,Busselton,AU,-33.65,115.3333,70.79,59,8,3.13,clear sky,2021-11-16 01:47:26
124,Azoyu,MX,16.7167,-98.7333,72.61,83,1,2.82,clear sky,2021-11-16 01:47:26
125,Naze,JP,28.3667,129.4833,70.72,55,1,9.91,clear sky,2021-11-16 01:47:05
126,Kouango,CF,4.9934,19.9619,71.65,95,100,3.67,overcast clouds,2021-11-16 01:47:27
127,Khatanga,RU,71.9667,102.5,-26.7,100,100,2.82,overcast clouds,2021-11-16 01:47:27
128,Villa Carlos Paz,AR,-31.4241,-64.4978,73.89,67,72,1.01,broken clouds,2021-11-16 01:46:41
129,Nanortalik,GL,60.1432,-45.2371,19.36,62,0,31.45,clear sky,2021-11-16 01:47:28
130,Talnakh,RU,69.4865,88.3972,2.25,96,100,12.15,light snow,2021-11-16 01:47:28
131,Tual,ID,-5.6667,132.75,83.98,70,69,10.22,broken clouds,2021-11-16 01:47:29
132,Faanui,PF,-16.4833,-151.75,80.87,74,100,10.47,moderate rain,2021-11-16 01:47:29
133,Ballina,AU,-28.8667,153.5667,81.79,44,94,9.22,overcast clouds,2021-11-16 01:47:30
134,Xining,CN,36.6167,101.7667,30.67,45,100,2.93,overcast clouds,2021-11-16 01:47:31
135,Vaini,TO,-21.2,-175.2,82.56,78,20,11.5,few clouds,2021-11-16 01:47:31
136,Yerbogachen,RU,61.2767,108.0108,7.32,99,84,3.91,broken clouds,2021-11-16 01:47:31
137,Betanzos,ES,43.2804,-8.2147,55.09,87,0,1.14,clear sky,2021-11-16 01:47:32
138,Dickson,US,36.077,-87.3878,50.92,59,20,13.8,few clouds,2021-11-16 01:42:33
139,Sola,VU,-13.8833,167.55,80.82,76,100,10.54,overcast clouds,2021-11-16 01:47:32
140,Meulaboh,ID,4.1363,96.1285,79.66,83,96,4.23,overcast clouds,2021-11-16 01:47:33
141,Kruisfontein,ZA,-34.0033,24.7314,61.88,72,100,11.92,overcast clouds,2021-11-16 01:47:33
142,Vestmannaeyjar,IS,63.4427,-20.2734,40.64,71,100,31.05,overcast clouds,2021-11-16 01:47:34
143,Los Llanos De Aridane,ES,28.6585,-17.9182,65.95,76,75,3.0,broken clouds,2021-11-16 01:47:34
144,Dourbali,TD,11.8091,15.8632,82.02,13,100,8.01,overcast clouds,2021-11-16 01:47:34
145,Pimentel,PE,-6.8367,-79.9342,63.7,84,68,12.8,broken clouds,2021-11-16 01:47:35
146,Puerto Escondido,MX,15.85,-97.0667,77.56,71,2,3.13,clear sky,2021-11-16 01:47:35
147,Bemidji,US,47.4736,-94.8803,31.17,90,90,10.36,overcast clouds,2021-11-16 01:47:36
148,Faya,SA,18.3851,42.4509,57.72,83,0,2.57,clear sky,2021-11-16 01:47:36
149,Yulara,AU,-25.2406,130.9889,80.44,18,0,8.05,clear sky,2021-11-16 01:47:36
150,Innisfail,AU,-17.5333,146.0333,92.88,64,35,7.99,scattered clouds,2021-11-16 01:47:37
151,Olafsvik,IS,64.8945,-23.7142,39.31,80,92,23.69,light rain,2021-11-16 01:47:37
152,Pascagoula,US,30.3658,-88.5561,59.02,98,1,0.0,clear sky,2021-11-16 01:46:20
153,Shakawe,BW,-18.3667,21.85,75.58,46,100,4.05,overcast clouds,2021-11-16 01:47:38
154,Ozernovskiy,RU,51.5,156.5167,34.88,64,100,23.91,light rain,2021-11-16 01:47:38
155,Sitka,US,57.0531,-135.33,35.49,80,20,5.75,few clouds,2021-11-16 01:47:39
156,Kargasok,RU,59.0556,80.8572,9.48,89,100,11.41,overcast clouds,2021-11-16 01:47:39
157,Itarema,BR,-2.9248,-39.9167,80.35,78,10,15.1,clear sky,2021-11-16 01:47:39
158,Araouane,ML,18.9048,-3.5265,73.0,30,34,10.02,scattered clouds,2021-11-16 01:47:40
159,Husavik,IS,66.0449,-17.3389,37.31,75,24,16.93,few clouds,2021-11-16 01:47:40
160,Ust-Tsilma,RU,65.441,52.1498,23.43,95,100,6.04,light snow,2021-11-16 01:47:41
161,Te Anau,NZ,-45.4167,167.7167,46.83,92,100,8.86,overcast clouds,2021-11-16 01:47:41
162,Namatanai,PG,-3.6667,152.4333,79.14,83,100,6.15,overcast clouds,2021-11-16 01:47:42
163,Bandarbeyla,SO,9.4942,50.8122,75.79,75,93,7.14,overcast clouds,2021-11-16 01:47:42
164,Meadow Lake,US,34.8014,-106.5436,62.08,38,15,0.69,few clouds,2021-11-16 01:47:42
165,Saskylakh,RU,71.9167,114.0833,-27.47,100,86,3.49,overcast clouds,2021-11-16 01:47:43
166,Mizdah,LY,31.4451,12.9801,57.69,33,0,4.25,clear sky,2021-11-16 01:47:43
167,Urusha,RU,54.05,122.9,19.22,61,8,1.23,clear sky,2021-11-16 01:47:44
168,The Valley,AI,18.217,-63.0578,82.26,67,0,21.81,clear sky,2021-11-16 01:47:44
169,Necochea,AR,-38.5473,-58.7368,55.04,81,85,22.26,light rain,2021-11-16 01:47:44
170,Deputatskiy,RU,69.3,139.9,-1.66,98,100,3.04,overcast clouds,2021-11-16 01:47:45
171,Avera,US,33.194,-82.5271,55.27,39,0,5.5,clear sky,2021-11-16 01:47:45
172,Belaya Gora,RU,68.5333,146.4167,3.06,96,100,2.71,light snow,2021-11-16 01:47:46
173,Kavieng,PG,-2.5744,150.7967,81.3,80,100,12.21,light rain,2021-11-16 01:47:46
174,Rio Grande,BR,-32.035,-52.0986,69.94,88,6,18.32,clear sky,2021-11-16 01:43:56
175,Vestmanna,FO,62.1564,-7.1664,47.32,100,90,14.97,mist,2021-11-16 01:47:47
176,Portland,US,45.5234,-122.6762,49.95,89,90,3.0,overcast clouds,2021-11-16 01:46:58
177,Traverse City,US,44.7631,-85.6206,37.58,79,75,4.61,broken clouds,2021-11-16 01:44:13
178,Barrow,US,71.2906,-156.7887,1.42,78,90,16.11,haze,2021-11-16 01:47:48
179,Saint Anthony,US,45.0205,-93.218,32.31,77,1,1.99,clear sky,2021-11-16 01:47:48
180,Chara,RU,56.9064,118.2631,13.19,83,79,0.65,broken clouds,2021-11-16 01:47:49
181,Khani,GE,41.9563,42.9566,40.57,97,97,4.9,overcast clouds,2021-11-16 01:47:49
182,Ouesso,CG,1.6136,16.0517,70.09,99,100,0.6,overcast clouds,2021-11-16 01:47:50
183,Kaitangata,NZ,-46.2817,169.8464,65.93,39,100,13.31,overcast clouds,2021-11-16 01:47:50
184,Caravelas,BR,-17.7125,-39.2481,70.9,77,100,8.1,overcast clouds,2021-11-16 01:47:51
185,Mana,GF,5.6592,-53.7767,78.04,87,71,7.11,broken clouds,2021-11-16 01:47:51
186,Conceicao Da Barra,BR,-18.5933,-39.7322,68.07,77,23,5.23,few clouds,2021-11-16 01:47:51
187,Saurimo,AO,-9.6608,20.3916,63.23,96,100,3.78,overcast clouds,2021-11-16 01:47:52
188,Sioux Lookout,CA,50.1001,-91.917,25.18,99,54,3.29,broken clouds,2021-11-16 01:47:53
189,Alford,GB,57.2326,-2.703,49.66,89,100,3.56,overcast clouds,2021-11-16 01:47:53
190,Hokitika,NZ,-42.7167,170.9667,55.11,70,83,19.93,broken clouds,2021-11-16 01:47:53
191,Trybukhivtsi,UA,49.0436,25.4581,36.45,81,3,14.63,clear sky,2021-11-16 01:47:54
192,Agadir,MA,30.4202,-9.5982,57.65,77,0,6.87,clear sky,2021-11-16 01:47:54
193,Usevya,TZ,-7.1,31.2333,72.55,66,95,3.22,overcast clouds,2021-11-16 01:47:55
194,Wajir,KE,1.7471,40.0573,76.89,73,84,10.69,broken clouds,2021-11-16 01:47:55
195,Half Moon Bay,US,37.4636,-122.4286,62.94,89,1,4.61,mist,2021-11-16 01:47:55
196,Esperance,AU,-33.8667,121.9,76.84,48,93,11.01,light rain,2021-11-16 01:47:56
197,Aklavik,CA,68.2191,-135.0107,0.43,93,100,6.98,overcast clouds,2021-11-16 01:47:56
198,General Roca,AR,-39.0333,-67.5833,54.0,50,2,14.2,clear sky,2021-11-16 01:47:57
199,Ancud,CL,-41.8697,-73.8203,45.93,82,9,5.64,clear sky,2021-11-16 01:47:57
200,Along,IN,28.1667,94.7667,63.63,59,34,1.21,scattered clouds,2021-11-16 01:47:57
201,Kawalu,ID,-7.3817,108.2082,77.11,83,98,1.79,overcast clouds,2021-11-16 01:47:58
202,Fuerte,PH,17.5381,120.3644,85.37,63,74,3.96,light rain,2021-11-16 01:47:58
203,Tasiilaq,GL,65.6145,-37.6368,24.96,62,17,11.48,few clouds,2021-11-16 01:47:59
204,Port Lincoln,AU,-34.7333,135.8667,60.04,54,92,8.72,overcast clouds,2021-11-16 01:47:59
205,Buala,SB,-8.145,159.5921,86.92,64,100,6.38,light rain,2021-11-16 01:48:00
206,Sao Joao Da Barra,BR,-21.6403,-41.0511,70.16,75,51,11.88,broken clouds,2021-11-16 01:48:00
207,Georgetown,MY,5.4112,100.3354,84.13,85,20,1.99,few clouds,2021-11-16 01:45:13
208,Korla,CN,41.7597,86.1469,34.05,44,9,2.98,clear sky,2021-11-16 01:48:01
209,Port Blair,IN,11.6667,92.75,81.43,82,100,10.33,overcast clouds,2021-11-16 01:48:01
210,Vila Franca Do Campo,PT,37.7167,-25.4333,65.19,80,75,10.09,broken clouds,2021-11-16 01:48:01
211,San Jose,US,37.3394,-121.895,63.09,81,90,0.0,haze,2021-11-16 01:46:32
212,Zhezkazgan,KZ,47.8043,67.7144,27.28,79,100,6.49,snow,2021-11-16 01:48:02
213,Giddalur,IN,15.35,78.9167,74.43,94,100,4.79,overcast clouds,2021-11-16 01:48:02
214,Hasaki,JP,35.7333,140.8333,63.28,72,96,12.71,overcast clouds,2021-11-16 01:48:03
215,Dharur,IN,18.8167,76.1167,71.35,81,100,10.2,overcast clouds,2021-11-16 01:48:04
216,Bambous Virieux,MU,-20.3428,57.7575,75.22,83,20,6.91,few clouds,2021-11-16 01:48:04
217,Altay,CN,47.8667,88.1167,22.71,90,100,2.91,overcast clouds,2021-11-16 01:48:04
218,Saint George,US,37.1041,-113.5841,68.34,33,1,1.99,clear sky,2021-11-16 01:46:19
219,Dubbo,AU,-32.25,148.6167,64.53,42,90,12.66,overcast clouds,2021-11-16 01:48:05
220,Port Alfred,ZA,-33.5906,26.891,62.6,84,86,15.39,overcast clouds,2021-11-16 01:48:05
221,Abu Kamal,SY,34.4506,40.9171,65.32,50,100,4.36,overcast clouds,2021-11-16 01:48:06
222,Port Hardy,CA,50.6996,-127.4199,42.8,93,75,9.22,light intensity shower rain,2021-11-16 01:46:19
223,Oktyabrskiy,RU,54.4815,53.471,7.14,97,81,3.31,broken clouds,2021-11-16 01:48:06
224,Havelock,US,34.8791,-76.9013,51.75,74,1,0.0,clear sky,2021-11-16 01:48:07
225,Alice Springs,AU,-23.7,133.8833,78.35,21,0,11.5,clear sky,2021-11-16 01:48:07
226,Saint-Pierre,RE,-21.3393,55.4781,74.84,60,0,6.91,light rain,2021-11-16 01:48:07
227,Gannan,CN,47.9147,123.5031,31.89,66,4,6.04,clear sky,2021-11-16 01:48:08
228,Port Macquarie,AU,-31.4333,152.9167,71.89,42,4,14.34,clear sky,2021-11-16 01:48:08
229,Sabang,ID,5.8933,95.3214,81.36,74,100,7.78,overcast clouds,2021-11-16 01:48:08
230,Madras,IN,13.0878,80.2785,78.96,95,40,0.0,mist,2021-11-16 01:44:54
231,Tilichiki,RU,60.4667,166.1,20.12,94,68,7.76,broken clouds,2021-11-16 01:48:09
232,Geraldton,AU,-28.7667,114.6,72.01,64,75,11.5,broken clouds,2021-11-16 01:48:10
233,Codrington,AU,-38.2667,141.9667,55.36,62,100,7.96,overcast clouds,2021-11-16 01:48:10
234,Erenhot,CN,43.6475,111.9767,26.35,72,5,8.14,clear sky,2021-11-16 01:48:11
235,Touros,BR,-5.1989,-35.4608,81.5,74,47,15.23,scattered clouds,2021-11-16 01:48:11
236,Krasnorechenskiy,RU,44.6265,135.3532,29.44,67,3,12.17,clear sky,2021-11-16 01:48:12
237,Jumla,NP,29.2747,82.1838,44.51,20,0,3.56,clear sky,2021-11-16 01:48:12
238,Bathsheba,BB,13.2167,-59.5167,81.21,74,20,21.85,few clouds,2021-11-16 01:48:13
239,Jiuquan,CN,39.7432,98.5174,35.87,24,29,2.55,scattered clouds,2021-11-16 01:48:13
240,Khuzhir,RU,53.1939,107.3397,33.55,72,100,12.06,overcast clouds,2021-11-16 01:48:14
241,Sinnamary,GF,5.3833,-52.95,78.6,85,32,8.34,scattered clouds,2021-11-16 01:48:14
242,Bereda,ES,43.2686,-7.5406,54.91,89,98,5.3,overcast clouds,2021-11-16 01:48:15
243,Baruun-Urt,MN,46.6806,113.2792,27.48,47,48,12.17,scattered clouds,2021-11-16 01:48:15
244,Acapulco,MX,16.8634,-99.8901,80.42,78,1,2.3,clear sky,2021-11-16 01:48:15
245,Columbus,US,39.9612,-82.9988,39.22,81,90,6.91,overcast clouds,2021-11-16 01:47:15
246,Boralday,KZ,43.3578,76.8594,22.86,100,90,2.24,fog,2021-11-16 01:48:16
247,Middle Valley,US,35.1959,-85.1847,48.65,73,20,0.0,few clouds,2021-11-16 01:48:16
248,Adrar,MR,20.5022,-10.0711,71.67,31,80,9.17,broken clouds,2021-11-16 01:48:17
249,Havre-Saint-Pierre,CA,50.2334,-63.5986,39.79,100,90,13.8,overcast clouds,2021-11-16 01:48:17
250,Redmond,US,47.674,-122.1215,48.54,80,83,1.01,broken clouds,2021-11-16 01:45:16
251,Marshall,US,34.3834,-86.3333,51.94,71,1,5.75,clear sky,2021-11-16 01:48:18
252,Nikolskoye,RU,59.7035,30.7861,32.88,77,7,10.33,clear sky,2021-11-16 01:48:18
253,Yatou,CN,37.15,122.3833,53.02,51,0,5.73,clear sky,2021-11-16 01:48:19
254,Morros,BR,-9.4467,-46.3003,71.06,92,97,1.77,overcast clouds,2021-11-16 01:48:19
255,Yar-Sale,RU,66.8333,70.8333,3.36,97,89,7.78,overcast clouds,2021-11-16 01:48:20
256,Byron Bay,AU,-28.65,153.6167,81.72,39,83,8.32,broken clouds,2021-11-16 01:48:13
257,Bangkal,PH,6.0667,121.0667,81.39,79,98,4.61,overcast clouds,2021-11-16 01:48:20
258,Merauke,ID,-8.4667,140.3333,82.65,76,99,7.9,moderate rain,2021-11-16 01:48:21
259,Paso De Los Toros,UY,-32.8167,-56.5167,69.94,86,81,9.95,broken clouds,2021-11-16 01:48:21
260,Yala,TH,6.3333,101.25,82.6,84,100,1.39,overcast clouds,2021-11-16 01:48:22
261,Ajdabiya,LY,30.7554,20.2263,66.47,73,99,7.99,overcast clouds,2021-11-16 01:48:22
262,Friesach,AT,46.9553,14.4058,44.98,94,100,2.44,overcast clouds,2021-11-16 01:48:23
263,Cheremukhovo,RU,60.3484,59.9851,16.59,77,100,7.81,overcast clouds,2021-11-16 01:48:23
264,Saint-Joseph,RE,-21.3667,55.6167,73.76,83,63,2.53,light rain,2021-11-16 01:48:23
265,Ilulissat,GL,69.2167,-51.1,14.02,62,40,6.91,scattered clouds,2021-11-16 01:48:24
266,Snyatyn,UA,48.4469,25.5694,38.17,80,4,13.33,clear sky,2021-11-16 01:48:24
267,Pierre,US,44.3683,-100.351,41.92,81,1,5.75,clear sky,2021-11-16 01:48:25
268,Narsaq,GL,60.9167,-46.05,16.02,74,0,5.06,clear sky,2021-11-16 01:48:25
269,Esparta,HN,15.7437,-87.1766,73.54,90,87,4.74,overcast clouds,2021-11-16 01:48:25
270,Synya,RU,65.3718,58.0387,20.39,95,100,7.83,light snow,2021-11-16 01:48:26
271,Nangomba,TZ,-10.9,38.5,69.91,89,1,3.29,clear sky,2021-11-16 01:48:26
272,Sawtell,AU,-30.3833,153.1,79.12,56,21,10.36,few clouds,2021-11-16 01:48:26
273,Victoria,HK,22.2855,114.1577,74.25,70,27,1.99,scattered clouds,2021-11-16 01:44:10
274,Hualmay,PE,-11.0964,-77.6139,64.49,81,97,8.81,overcast clouds,2021-11-16 01:48:27
275,Butaritari,KI,3.0707,172.7902,82.62,68,86,15.17,overcast clouds,2021-11-16 01:48:27
276,Senador Guiomard,BR,-10.1522,-67.7392,78.55,89,89,3.31,overcast clouds,2021-11-16 01:48:28
277,San Patricio,US,28.017,-97.5169,75.29,73,0,12.88,clear sky,2021-11-16 01:48:28
278,Sorland,NO,67.667,12.6934,46.8,77,100,28.48,light rain,2021-11-16 01:48:29
279,Maldonado,UY,-34.6667,-54.9167,70.99,95,23,8.9,few clouds,2021-11-16 01:45:26
280,La Rioja,ES,42.25,-2.5,42.48,89,100,4.7,overcast clouds,2021-11-16 01:48:29
281,Barra Patuca,HN,15.8,-84.2833,77.85,86,97,11.5,overcast clouds,2021-11-16 01:48:29
282,Nanyamba,TZ,-10.6833,39.8333,66.81,96,0,1.7,clear sky,2021-11-16 01:48:30
283,Aqtobe,KZ,50.2797,57.2072,12.29,85,20,8.95,light snow,2021-11-16 01:48:30
284,Hoquiam,US,46.9809,-123.8893,48.18,66,75,23.02,broken clouds,2021-11-16 01:48:31
285,Iqaluit,CA,63.7506,-68.5145,1.13,64,20,15.99,few clouds,2021-11-16 01:48:31
286,Abashiri,JP,44.0213,144.2697,41.29,56,75,3.44,broken clouds,2021-11-16 01:48:32
287,Axim,GH,4.8699,-2.2405,78.78,85,55,6.85,broken clouds,2021-11-16 01:48:32
288,Saint-Augustin,CA,51.226,-58.6502,38.32,97,100,14.76,overcast clouds,2021-11-16 01:48:33
289,Pevek,RU,69.7008,170.3133,20.5,86,100,9.82,overcast clouds,2021-11-16 01:48:33
290,Verkhnevilyuysk,RU,63.4453,120.3167,-6.75,100,97,3.02,overcast clouds,2021-11-16 01:48:34
291,Hervey Bay,AU,-25.2986,152.8535,87.04,60,3,6.96,clear sky,2021-11-16 01:48:34
292,Shingu,JP,33.7333,135.9833,63.59,48,42,1.19,scattered clouds,2021-11-16 01:48:35
293,Moosomin,CA,50.1333,-101.6677,30.22,99,100,10.49,light snow,2021-11-16 01:48:35
294,Chokurdakh,RU,70.6333,147.9167,7.77,96,100,2.42,light snow,2021-11-16 01:48:36
295,Shush,IR,32.1942,48.2436,67.66,31,100,7.65,overcast clouds,2021-11-16 01:48:36
296,Pacific Grove,US,36.6177,-121.9166,65.97,88,1,1.99,clear sky,2021-11-16 01:48:36
297,Hirara,JP,24.8,125.2833,76.86,64,20,14.97,few clouds,2021-11-16 01:48:37
298,Vila Velha,BR,-20.3297,-40.2925,69.94,88,40,1.14,scattered clouds,2021-11-16 01:48:37
299,Port Augusta,AU,-32.5,137.7667,68.7,36,6,6.93,clear sky,2021-11-16 01:48:38
300,Asau,RO,46.4333,26.4,43.75,80,81,3.29,broken clouds,2021-11-16 01:48:38
301,Ribeira Grande,PT,38.5167,-28.7,68.04,83,10,14.92,clear sky,2021-11-16 01:48:39
302,Benghazi,LY,32.1167,20.0667,68.47,69,0,7.23,clear sky,2021-11-16 01:48:38
303,Palmer,US,42.1584,-72.3287,41.45,63,40,3.0,scattered clouds,2021-11-16 01:48:39
304,Rolante,BR,-29.6506,-50.5758,75.25,80,33,4.12,scattered clouds,2021-11-16 01:48:39
305,Vardo,NO,70.3705,31.1107,41.0,80,100,25.39,light rain,2021-11-16 01:48:40
306,Saldana,CO,3.9292,-75.0152,75.87,82,58,2.15,broken clouds,2021-11-16 01:48:40
307,Moerai,PF,-22.4333,-151.3333,76.37,78,100,3.67,overcast clouds,2021-11-16 01:48:41
308,Cairns,AU,-16.9167,145.7667,92.95,64,55,6.91,broken clouds,2021-11-16 01:48:41
309,San Cristobal,VE,7.7669,-72.225,69.98,82,90,0.67,overcast clouds,2021-11-16 01:46:52
310,Cholula,MX,19.0641,-98.3035,54.88,46,91,3.53,overcast clouds,2021-11-16 01:48:42
311,Juneau,US,58.3019,-134.4197,32.05,95,75,3.44,broken clouds,2021-11-16 01:48:42
312,Batemans Bay,AU,-35.7167,150.1833,68.2,38,6,9.86,clear sky,2021-11-16 01:48:42
313,Kantang,TH,7.4054,99.5156,78.89,94,20,0.0,few clouds,2021-11-16 01:48:43
314,Riyadh,SA,24.6877,46.7219,62.74,31,1,7.81,clear sky,2021-11-16 01:44:20
315,Vao,NC,-22.6667,167.4833,76.78,71,1,11.72,clear sky,2021-11-16 01:48:43
316,Hovd,MN,48.0056,91.6419,23.04,43,7,2.55,clear sky,2021-11-16 01:48:43
317,Lashio,MM,22.9333,97.75,65.32,98,100,0.4,overcast clouds,2021-11-16 01:48:44
318,Kahramanmaras,TR,38.0,37.0,32.63,45,4,4.83,clear sky,2021-11-16 01:48:44
319,Carnot,CF,4.9409,15.8665,68.94,96,98,0.47,overcast clouds,2021-11-16 01:48:45
320,Padang,ID,-0.9492,100.3543,82.4,62,100,0.81,overcast clouds,2021-11-16 01:48:45
321,Grand Gaube,MU,-20.0064,57.6608,75.38,76,66,3.0,broken clouds,2021-11-16 01:48:45
322,Bodden Town,KY,19.2833,-81.25,82.4,80,20,7.0,few clouds,2021-11-16 01:48:46
323,Marsa Matruh,EG,31.3525,27.2453,62.8,88,75,6.91,broken clouds,2021-11-16 01:48:46
324,Botou,CN,38.0667,116.5667,49.42,69,0,3.69,clear sky,2021-11-16 01:48:46
325,Port Hedland,AU,-20.3167,118.5667,87.85,42,52,9.22,broken clouds,2021-11-16 01:48:47
326,Nuuk,GL,64.1835,-51.7216,16.41,79,20,3.44,few clouds,2021-11-16 01:48:47
327,Zhigansk,RU,66.7697,123.3711,-25.35,100,87,0.96,overcast clouds,2021-11-16 01:48:47
328,Sur,OM,22.5667,59.5289,72.84,46,96,1.74,overcast clouds,2021-11-16 01:48:48
329,Kampot,KH,10.6167,104.1833,80.65,89,99,7.72,overcast clouds,2021-11-16 01:48:48
330,Muzaffarabad,PK,34.37,73.4711,50.85,27,0,6.85,clear sky,2021-11-16 01:48:48
331,Paamiut,GL,61.994,-49.6678,7.95,72,0,7.02,clear sky,2021-11-16 01:48:49
332,Leshukonskoye,RU,64.8989,45.7622,27.68,95,100,9.6,light snow,2021-11-16 01:48:49
333,Amahai,ID,-3.3333,128.9167,84.2,70,91,2.08,overcast clouds,2021-11-16 01:48:50
334,Malakal,SS,9.5334,31.6605,74.19,30,59,3.71,broken clouds,2021-11-16 01:48:50
335,Yeppoon,AU,-23.1333,150.7333,85.78,54,2,9.66,clear sky,2021-11-16 01:48:50
336,Qingdao,CN,36.0986,120.3719,46.0,93,4,4.47,clear sky,2021-11-16 01:48:51
337,Evensk,RU,61.95,159.2333,28.08,84,100,19.77,overcast clouds,2021-11-16 01:48:51
338,Biggar,GB,55.6167,-3.5167,47.12,94,85,7.07,overcast clouds,2021-11-16 01:48:51
339,Antofagasta,CL,-23.65,-70.4,60.08,79,44,4.7,scattered clouds,2021-11-16 01:48:52
340,Calama,CL,-22.4667,-68.9333,59.49,12,38,13.8,scattered clouds,2021-11-16 01:48:52
341,Piacabucu,BR,-10.4056,-36.4344,77.99,83,59,10.13,broken clouds,2021-11-16 01:48:53
342,Uruzgan,AF,32.8333,66.0,38.05,32,29,3.53,scattered clouds,2021-11-16 01:48:53
343,Leh,IN,34.1667,77.5833,13.53,60,0,4.18,clear sky,2021-11-16 01:48:53
344,Guamuchil,MX,25.4667,-108.1,77.68,55,14,0.96,few clouds,2021-11-16 01:46:38
345,Kalangala,UG,-0.3089,32.225,69.15,75,76,8.84,light rain,2021-11-16 01:48:54
346,Rizhao,CN,35.4275,119.4553,55.44,64,0,6.69,clear sky,2021-11-16 01:48:55
347,East London,ZA,-33.0153,27.9116,65.12,68,97,14.97,overcast clouds,2021-11-16 01:47:29
348,Kutum,SD,14.2,24.6667,63.9,27,5,6.33,clear sky,2021-11-16 01:48:56
349,Anadyr,RU,64.75,177.4833,27.1,80,75,11.18,broken clouds,2021-11-16 01:48:56
350,Kristianstad,SE,56.0313,14.1524,41.95,95,90,0.0,overcast clouds,2021-11-16 01:48:56
351,Meiganga,CM,6.5167,14.3,69.08,64,94,0.25,overcast clouds,2021-11-16 01:48:57
352,Kroya,ID,-7.6331,109.2461,86.2,84,100,2.84,overcast clouds,2021-11-16 01:48:58
353,San Quintin,MX,30.4833,-115.95,66.2,70,0,7.52,clear sky,2021-11-16 01:48:58
354,Glens Falls,US,43.3095,-73.644,39.07,81,1,1.99,clear sky,2021-11-16 01:44:23
355,Chibuto,MZ,-24.6867,33.5306,71.4,80,2,9.93,clear sky,2021-11-16 01:48:59
356,Aflao,TG,6.116,1.1914,77.13,88,20,1.14,few clouds,2021-11-16 01:48:59
357,Barra Do Garcas,BR,-15.89,-52.2567,71.73,96,100,5.5,overcast clouds,2021-11-16 01:49:00
358,Teknaf,BD,20.8624,92.3058,77.97,80,19,2.68,few clouds,2021-11-16 01:49:00
359,Kigoma,TZ,-4.8769,29.6267,75.31,73,92,8.34,overcast clouds,2021-11-16 01:49:00
360,Souillac,MU,-20.5167,57.5167,75.36,83,20,6.91,few clouds,2021-11-16 01:49:01
361,Bucerias,MX,20.75,-105.3333,79.99,75,99,2.48,overcast clouds,2021-11-16 01:49:01
362,Tuatapere,NZ,-46.1333,167.6833,51.62,72,100,11.79,light rain,2021-11-16 01:49:02
363,Dese,ET,11.1333,39.6333,51.96,60,48,1.25,scattered clouds,2021-11-16 01:49:02
364,Swan Hill,AU,-35.3378,143.5544,63.32,33,6,7.43,clear sky,2021-11-16 01:49:03
365,Grand-Santi,GF,4.25,-54.3833,73.45,98,99,2.19,overcast clouds,2021-11-16 01:49:03
366,Mangrol,IN,21.1167,70.1167,73.02,41,100,11.3,overcast clouds,2021-11-16 01:49:04
367,Filadelfia,US,39.9523,-75.1638,42.12,59,1,5.99,clear sky,2021-11-16 01:46:05
368,Saint-Francois,FR,46.4154,3.9054,44.47,92,90,0.0,overcast clouds,2021-11-16 01:49:04
369,Santa Rosa,PH,14.3122,121.1114,88.09,69,92,13.62,overcast clouds,2021-11-16 01:49:05
370,Kutina,HR,45.475,16.7819,44.58,92,99,3.62,overcast clouds,2021-11-16 01:49:05
371,Sistranda,NO,63.7256,8.834,47.89,74,100,13.0,light rain,2021-11-16 01:49:05
372,Moose Factory,CA,51.2585,-80.6094,28.4,93,90,13.8,light snow,2021-11-16 01:49:06
373,Grindavik,IS,63.8424,-22.4338,35.55,100,75,24.16,broken clouds,2021-11-16 01:49:06
374,Launceston,AU,-41.45,147.1667,59.61,49,90,5.01,overcast clouds,2021-11-16 01:49:06
375,Kieta,PG,-6.2167,155.6333,84.58,72,100,4.0,light rain,2021-11-16 01:49:07
376,Dingle,PH,10.9995,122.6711,81.75,84,100,10.67,light rain,2021-11-16 01:49:07
377,Atar,MR,20.5169,-13.0499,78.84,30,100,5.28,overcast clouds,2021-11-16 01:49:07
378,Boyolangu,ID,-8.1181,111.8935,79.39,79,98,4.25,overcast clouds,2021-11-16 01:49:08
379,Marawi,PH,7.9986,124.2928,74.64,77,58,3.65,broken clouds,2021-11-16 01:49:08
380,Les Escoumins,CA,48.1111,-69.0236,34.95,81,100,12.41,overcast clouds,2021-11-16 01:49:09
381,Rovnoye,RU,50.7765,46.0509,28.2,73,23,13.65,few clouds,2021-11-16 01:49:09
382,Verkhoyansk,RU,67.5447,133.385,-14.28,91,98,2.91,overcast clouds,2021-11-16 01:49:09
383,Pemangkat,ID,1.1667,108.9667,82.6,73,98,2.93,overcast clouds,2021-11-16 01:49:10
384,Nagato,JP,34.3833,131.2,59.45,50,100,2.84,overcast clouds,2021-11-16 01:49:10
385,Dalvik,IS,65.9702,-18.5286,37.33,79,16,12.39,few clouds,2021-11-16 01:49:10
386,Chernyshevskiy,RU,63.0128,112.4714,9.1,96,100,1.48,overcast clouds,2021-11-16 01:49:11
387,Misratah,LY,32.3754,15.0925,66.42,50,2,7.54,clear sky,2021-11-16 01:49:11
388,Cedar City,US,37.6775,-113.0619,56.37,26,1,9.22,clear sky,2021-11-16 01:49:12
389,Maun,BW,-19.9833,23.4167,75.16,57,0,2.3,clear sky,2021-11-16 01:49:12
390,Jalu,LY,29.0331,21.5482,66.27,77,100,10.98,overcast clouds,2021-11-16 01:49:13
391,Lavrentiya,RU,65.5833,-171.0,14.95,90,95,7.47,overcast clouds,2021-11-16 01:49:13
392,Richards Bay,ZA,-28.783,32.0377,71.62,89,85,11.34,overcast clouds,2021-11-16 01:49:13
393,Ittiri,IT,40.5929,8.5684,54.5,90,98,5.12,overcast clouds,2021-11-16 01:49:14
394,Benguela,AO,-12.5763,13.4055,80.91,70,100,4.65,overcast clouds,2021-11-16 01:49:14
395,Vokhma,RU,58.9303,46.7586,25.09,81,100,14.29,overcast clouds,2021-11-16 01:49:15
396,Chingirlau,KZ,51.095,54.0814,14.02,90,8,9.69,clear sky,2021-11-16 01:49:15
397,Bac Lieu,VN,9.285,105.7244,78.73,90,100,15.17,moderate rain,2021-11-16 01:49:15
398,Port Moresby,PG,-9.4431,147.1797,89.02,66,40,11.5,haze,2021-11-16 01:49:16
399,Acarau,BR,-2.8856,-40.12,80.37,79,20,15.21,few clouds,2021-11-16 01:49:16
400,Tiznit,MA,29.5833,-9.5,53.69,65,4,2.68,clear sky,2021-11-16 01:49:16
401,Neiafu,TO,-18.65,-173.9833,81.28,61,40,10.36,scattered clouds,2021-11-16 01:49:17
402,Aleppo,SY,36.25,37.5,56.62,69,0,3.15,clear sky,2021-11-16 01:49:17
403,Fukue,JP,32.6881,128.8419,59.36,77,75,3.44,broken clouds,2021-11-16 01:49:18
404,Bonfim,BR,3.0833,-59.95,81.7,62,85,7.09,overcast clouds,2021-11-16 01:49:19
405,Mahon,ES,39.8885,4.2658,55.96,94,75,26.46,broken clouds,2021-11-16 01:49:19
406,Kapit,MY,2.0167,112.9333,79.39,82,100,0.94,overcast clouds,2021-11-16 01:49:20
407,Yerofey Pavlovich,RU,53.9667,121.9667,20.16,59,0,2.84,clear sky,2021-11-16 01:49:20
408,Normandin,CA,48.8333,-72.5321,31.62,86,56,6.91,broken clouds,2021-11-16 01:49:21
409,Yabrud,SY,33.9674,36.6574,49.53,62,50,2.1,scattered clouds,2021-11-16 01:49:21
410,Fortuna,US,40.5982,-124.1573,59.36,75,90,0.0,light rain,2021-11-16 01:49:22
411,Mulege,MX,26.8833,-111.9833,72.21,48,26,3.22,scattered clouds,2021-11-16 01:49:22
412,Killybegs,IE,54.6333,-8.45,49.44,84,100,14.47,overcast clouds,2021-11-16 01:49:22
413,Teguise,ES,29.0605,-13.564,61.02,77,0,8.05,clear sky,2021-11-16 01:49:23
414,Vikhorevka,RU,56.1201,101.1636,24.39,92,100,3.31,overcast clouds,2021-11-16 01:49:23
415,Usinsk,RU,65.9939,57.5281,19.76,96,100,11.27,light snow,2021-11-16 01:49:23
416,Nuevo Progreso,MX,23.1667,-97.95,73.6,72,0,4.59,clear sky,2021-11-16 01:49:24
417,Bardiyah,LY,31.7561,25.0865,67.86,76,93,8.19,overcast clouds,2021-11-16 01:49:24
418,Nieuw Nickerie,SR,5.95,-56.9833,77.76,87,99,9.75,overcast clouds,2021-11-16 01:49:25
419,Mirnyy,RU,62.5353,113.9611,11.14,96,100,1.1,overcast clouds,2021-11-16 01:49:25
420,Karasjok,NO,69.4719,25.5112,39.31,91,100,11.48,overcast clouds,2021-11-16 01:49:25
421,Harper,LR,4.375,-7.7169,77.72,86,29,4.94,light rain,2021-11-16 01:49:26
422,College,US,64.8569,-147.8028,-2.25,78,75,0.0,light snow,2021-11-16 01:49:26
423,Velyka Mykhaylivka,UA,47.0794,29.8514,33.08,84,4,9.42,clear sky,2021-11-16 01:49:26
424,Moctezuma,MX,29.8,-109.6667,71.96,24,0,3.47,clear sky,2021-11-16 01:49:27
425,Broken Hill,AU,-31.95,141.4333,60.51,41,2,6.91,clear sky,2021-11-16 01:47:29
426,Konevo,RU,62.1215,39.3192,32.95,97,100,13.85,light snow,2021-11-16 01:49:27
427,Kondinskoye,RU,59.6481,67.41,11.61,93,33,9.57,scattered clouds,2021-11-16 01:49:28
428,Benalla,AU,-36.55,145.9833,59.99,44,38,9.64,scattered clouds,2021-11-16 01:49:28
429,Andenes,NO,69.3143,16.1194,40.98,87,75,10.36,broken clouds,2021-11-16 01:49:29
430,Eureka,US,40.8021,-124.1637,59.63,95,100,5.01,light rain,2021-11-16 01:49:29
431,Pisco,PE,-13.7,-76.2167,65.01,82,0,16.11,clear sky,2021-11-16 01:44:55
432,Umm Lajj,SA,25.0213,37.2685,74.91,67,0,10.36,clear sky,2021-11-16 01:49:29
433,Afsin,TR,38.2477,36.914,40.73,41,6,3.42,clear sky,2021-11-16 01:49:30
434,Coahuayana,MX,18.7333,-103.6833,76.28,70,80,2.82,broken clouds,2021-11-16 01:49:30
435,Trinidad,BO,-14.8333,-64.9,74.52,97,100,3.56,light rain,2021-11-16 01:49:31
436,Sao Felix Do Xingu,BR,-6.6447,-51.995,72.37,99,100,0.27,overcast clouds,2021-11-16 01:49:31
437,Berlevag,NO,70.8578,29.0864,41.0,80,100,25.52,overcast clouds,2021-11-16 01:49:31
438,Oktyabrskoye,RU,43.0645,44.7417,30.34,100,100,6.71,snow,2021-11-16 01:49:32
439,Guerrero Negro,MX,27.9769,-114.0611,70.75,57,0,9.48,clear sky,2021-11-16 01:49:32
440,Barguzin,RU,53.6167,109.6167,21.31,84,86,6.53,overcast clouds,2021-11-16 01:49:33
441,Ogulin,HR,45.2661,15.2286,50.83,96,100,2.89,overcast clouds,2021-11-16 01:49:33
442,Cockburn Town,TC,21.4612,-71.1419,82.36,74,40,13.8,scattered clouds,2021-11-16 01:49:33
443,Kimbe,PG,-5.5502,150.1429,85.53,73,100,6.08,moderate rain,2021-11-16 01:49:34
444,Palu,ID,-0.8917,119.8707,83.44,76,100,1.72,overcast clouds,2021-11-16 01:49:34
445,Ust-Koksa,RU,50.2696,85.6108,9.19,95,100,1.92,overcast clouds,2021-11-16 01:49:34
446,Bonnyville,CA,54.2668,-110.735,31.32,95,100,15.59,light snow,2021-11-16 01:49:35
447,Yumen,CN,40.2833,97.2,32.54,31,100,20.09,overcast clouds,2021-11-16 01:49:35
448,Hope,US,33.6671,-93.5916,71.65,89,0,3.87,clear sky,2021-11-16 01:49:36
449,Tura,IN,25.5198,90.2201,67.23,77,3,2.42,clear sky,2021-11-16 01:49:36
450,Bolgatanga,GH,10.7856,-0.8514,81.86,42,16,4.38,few clouds,2021-11-16 01:49:36
451,Ulaanbaatar,MN,47.9077,106.8832,14.13,73,100,0.0,overcast clouds,2021-11-16 01:48:32
452,Camacha,PT,33.0833,-16.3333,63.82,68,20,9.22,few clouds,2021-11-16 01:49:37
453,Bud,US,39.447,-86.1758,38.82,88,95,7.07,overcast clouds,2021-11-16 01:49:37
454,Raga,SS,8.4596,25.678,72.39,63,0,3.83,clear sky,2021-11-16 01:49:37
455,Turka,UA,49.1541,23.0297,38.14,87,0,3.24,clear sky,2021-11-16 01:49:38
456,Mansoa,GW,12.0733,-15.3189,75.4,74,28,4.7,scattered clouds,2021-11-16 01:49:38
457,Jijiga,ET,9.35,42.8,61.32,51,10,2.13,clear sky,2021-11-16 01:49:39
458,Kupang,ID,-10.1667,123.5833,87.58,56,83,5.1,broken clouds,2021-11-16 01:49:39
459,Bridlington,GB,54.0831,-0.1919,50.29,85,100,9.17,overcast clouds,2021-11-16 01:49:39
460,Ixtapa,MX,20.7,-105.2,79.23,75,98,2.64,overcast clouds,2021-11-16 01:49:40
461,Barahona,DO,18.2085,-71.1008,77.99,79,20,4.36,few clouds,2021-11-16 01:49:40
462,Muisne,EC,0.6,-80.0333,73.45,85,100,7.52,overcast clouds,2021-11-16 01:49:41
463,Pundaguitan,PH,6.3711,126.1689,82.67,75,96,4.81,overcast clouds,2021-11-16 01:49:41
464,Clonakilty,IE,51.6231,-8.8706,49.08,88,100,6.8,overcast clouds,2021-11-16 01:49:42
465,Sallanches,FR,45.9442,6.6316,49.48,96,95,1.95,overcast clouds,2021-11-16 01:49:42
466,Sambava,MG,-14.2667,50.1667,76.41,78,52,6.22,broken clouds,2021-11-16 01:49:43
467,Irbit,RU,57.6705,63.071,12.81,91,9,8.1,clear sky,2021-11-16 01:49:43
468,Andijon,UZ,40.7821,72.3442,38.48,86,25,0.0,mist,2021-11-16 01:49:44
469,Kiruna,SE,67.8557,20.2251,29.32,80,55,10.36,broken clouds,2021-11-16 01:49:44
470,Kavaratti,IN,10.5669,72.642,81.55,76,85,12.77,overcast clouds,2021-11-16 01:49:45
471,Santo Nino,PH,6.435,124.6975,85.15,71,90,2.35,overcast clouds,2021-11-16 01:49:45
472,Salvador,SV,13.8333,-88.9167,73.8,88,65,3.74,broken clouds,2021-11-16 01:49:45
473,Loiza,PR,18.4313,-65.8802,82.4,83,40,5.75,scattered clouds,2021-11-16 01:49:46
474,Jardim,BR,-21.4803,-56.1381,72.88,95,100,3.62,moderate rain,2021-11-16 01:49:46
475,Nouadhibou,MR,20.931,-17.0347,71.58,68,100,3.44,overcast clouds,2021-11-16 01:49:47
476,Sinegorye,RU,62.0788,150.477,4.48,97,100,3.0,overcast clouds,2021-11-16 01:49:47
477,Bilibino,RU,68.0546,166.4372,9.21,95,100,3.49,overcast clouds,2021-11-16 01:49:48
478,Thalgau,AT,47.8333,13.25,41.61,97,75,4.61,fog,2021-11-16 01:49:48
479,Mabaruma,GY,8.2,-59.7833,72.63,98,27,2.46,scattered clouds,2021-11-16 01:49:48
480,Karratha,AU,-20.7377,116.8463,88.5,24,9,4.61,clear sky,2021-11-16 01:49:49
481,Turbat,PK,26.0023,63.044,63.79,25,52,9.89,broken clouds,2021-11-16 01:49:49
482,San Vicente,AR,-26.6167,-54.1333,69.76,73,100,2.42,overcast clouds,2021-11-16 01:49:49
483,Jacmel,HT,18.2342,-72.5347,84.04,79,24,4.43,few clouds,2021-11-16 01:49:50
484,Pauini,BR,-7.7136,-66.9764,76.62,89,100,3.13,overcast clouds,2021-11-16 01:49:50
485,Lucapa,AO,-8.4192,20.7447,64.92,98,92,1.63,light rain,2021-11-16 01:49:50
486,Zeya,RU,53.75,127.2667,19.98,55,20,0.81,few clouds,2021-11-16 01:49:51
487,Moron,AR,-34.6534,-58.6198,74.93,81,100,4.59,overcast clouds,2021-11-16 01:47:26
488,Am Timan,TD,11.0297,20.2827,76.44,28,77,4.9,broken clouds,2021-11-16 01:49:51
489,Bequimao,BR,-2.4489,-44.7825,82.72,93,53,2.66,broken clouds,2021-11-16 01:49:52
490,Helong,CN,42.5397,128.9972,38.59,36,3,4.07,clear sky,2021-11-16 01:49:52
491,Porto Novo,BJ,6.4965,2.6036,82.22,86,33,5.55,light rain,2021-11-16 01:49:52
492,Kilakarai,IN,9.2333,78.7833,80.04,80,88,6.31,overcast clouds,2021-11-16 01:49:53
493,Mersing,MY,2.4312,103.8405,80.51,89,40,0.0,scattered clouds,2021-11-16 01:49:53
494,Lorengau,PG,-2.0226,147.2712,83.26,75,80,5.39,broken clouds,2021-11-16 01:49:53
495,El Tigre,VE,8.8875,-64.2454,76.69,72,63,13.04,broken clouds,2021-11-16 01:49:54
496,Vagur,FO,61.4732,-6.8119,48.69,92,100,40.78,overcast clouds,2021-11-16 01:49:54
497,Obigarm,TJ,38.7173,69.7088,30.7,51,0,10.04,clear sky,2021-11-16 01:49:55
498,Spornoye,RU,50.8448,37.2913,21.22,88,19,4.05,few clouds,2021-11-16 01:49:55
499,Gulu,UG,2.7746,32.299,72.01,51,95,3.6,overcast clouds,2021-11-16 01:49:55
500,Kichera,RU,55.9375,110.0997,28.63,93,98,1.34,light snow,2021-11-16 01:49:56
501,Taoudenni,ML,22.6783,-3.9836,71.87,18,100,5.46,overcast clouds,2021-11-16 01:49:56
502,Rodrigues Alves,BR,-7.738,-72.6509,75.24,91,98,2.82,overcast clouds,2021-11-16 01:49:56
503,Oranjemund,NA,-28.55,16.4333,58.89,95,6,5.37,clear sky,2021-11-16 01:49:57
504,Hanchuan,CN,30.65,113.7667,67.12,44,42,10.18,scattered clouds,2021-11-16 01:49:57
505,Hailey,US,43.5196,-114.3153,48.06,61,1,0.0,clear sky,2021-11-16 01:49:58
506,Kilindoni,TZ,-7.9139,39.6668,79.14,78,9,9.62,clear sky,2021-11-16 01:49:58
507,Rumonge,BI,-3.9736,29.4386,74.35,65,92,5.61,overcast clouds,2021-11-16 01:49:58
508,Atambua,ID,-9.1061,124.8925,84.69,50,70,3.09,broken clouds,2021-11-16 01:49:59
509,Imbituba,BR,-28.24,-48.6703,73.29,87,6,16.04,clear sky,2021-11-16 01:49:59
510,Ketchikan,US,55.3422,-131.6461,34.27,86,75,0.0,broken clouds,2021-11-16 01:50:00
511,Hukuntsi,BW,-24.0,21.75,80.71,23,9,9.01,clear sky,2021-11-16 01:50:00
512,Zharkovskiy,RU,55.849,32.2697,28.0,78,50,7.11,scattered clouds,2021-11-16 01:50:00
513,Nortelandia,BR,-14.4547,-56.8028,73.24,98,100,2.04,overcast clouds,2021-11-16 01:50:01
514,Conde,BR,-7.2597,-34.9075,78.26,83,20,5.75,few clouds,2021-11-16 01:50:01
515,Cravo Norte,CO,6.3017,-70.2041,79.5,60,42,6.17,scattered clouds,2021-11-16 01:50:01
516,Ust-Omchug,RU,61.15,149.6333,8.35,92,100,5.26,overcast clouds,2021-11-16 01:50:02
517,Egvekinot,RU,66.3167,-179.1667,7.54,90,100,5.48,overcast clouds,2021-11-16 01:50:02
518,Katsuura,JP,35.1333,140.3,60.91,73,59,8.16,broken clouds,2021-11-16 01:50:03
519,Laje,BR,-10.1833,-40.9667,72.75,79,100,12.19,overcast clouds,2021-11-16 01:50:03
520,Dzilam Gonzalez,MX,21.2833,-88.9333,69.82,76,87,6.02,overcast clouds,2021-11-16 01:50:04
521,Minab,IR,27.1467,57.0801,62.1,22,0,4.88,clear sky,2021-11-16 01:48:44
522,Mount Isa,AU,-20.7333,139.5,83.97,14,22,12.66,few clouds,2021-11-16 01:50:04
523,Devils Lake,US,48.1128,-98.8651,31.95,96,90,11.99,overcast clouds,2021-11-16 01:49:26
524,Dhidhdhoo,MV,6.8833,73.1,81.23,80,100,17.05,light rain,2021-11-16 01:50:05
525,Sonneberg,DE,50.35,11.1667,41.02,90,51,4.0,broken clouds,2021-11-16 01:50:06
526,Pringsewu,ID,-5.3582,104.9744,81.54,74,99,1.16,overcast clouds,2021-11-16 01:50:06
527,Matata,NZ,-37.8833,176.75,74.52,57,54,15.55,broken clouds,2021-11-16 01:50:07
528,Mount Gambier,AU,-37.8333,140.7667,53.51,71,90,9.22,overcast clouds,2021-11-16 01:50:07
529,Abu Dhabi,AE,24.4667,54.3667,73.51,73,0,0.0,clear sky,2021-11-16 01:50:08
530,Ust-Kuyga,RU,70.0167,135.6,-3.96,99,100,2.21,light snow,2021-11-16 01:50:08
531,Torbat-E Jam,IR,35.244,60.6225,43.9,53,99,0.49,overcast clouds,2021-11-16 01:50:08
532,Topolobampo,MX,25.6,-109.05,78.06,61,72,9.64,broken clouds,2021-11-16 01:50:09
533,Pandan,PH,14.0453,124.1694,82.24,85,100,11.99,overcast clouds,2021-11-16 01:50:09
534,Finschhafen,PG,-6.6024,147.8681,84.9,71,92,6.06,overcast clouds,2021-11-16 01:50:10
535,Sassandra,CI,4.95,-6.0833,76.37,90,64,5.01,light rain,2021-11-16 01:50:10
536,Norman Wells,CA,65.282,-126.8329,1.44,78,75,4.61,light snow,2021-11-16 01:50:11
537,Haines Junction,CA,60.7522,-137.5108,8.55,72,65,2.3,broken clouds,2021-11-16 01:50:11
538,Baymak,RU,52.5933,58.3225,2.66,90,5,4.18,clear sky,2021-11-16 01:50:12
539,Felanitx,ES,39.4696,3.1483,56.95,80,95,20.67,overcast clouds,2021-11-16 01:50:12
540,Ilo,PE,-17.6394,-71.3375,64.09,80,100,4.59,overcast clouds,2021-11-16 01:50:13
541,La Romana,DO,18.4273,-68.9728,79.16,89,40,4.61,scattered clouds,2021-11-16 01:50:13
542,Goure,NE,13.9835,10.2704,80.02,15,97,7.45,overcast clouds,2021-11-16 01:50:13
543,Townsville,AU,-19.25,146.8,81.48,78,40,11.5,scattered clouds,2021-11-16 01:48:03
544,Taltal,CL,-25.4,-70.4833,61.9,77,5,2.33,clear sky,2021-11-16 01:45:24
545,Shilka,RU,51.85,116.0333,25.05,69,83,3.98,broken clouds,2021-11-16 01:50:14
546,Belyy Yar,RU,53.6039,91.3903,26.85,66,0,15.66,clear sky,2021-11-16 01:50:15
547,Guaruja,BR,-23.9931,-46.2564,78.17,26,0,3.2,clear sky,2021-11-16 01:50:15
548,Chapais,CA,49.7834,-74.8492,28.18,89,99,9.24,overcast clouds,2021-11-16 01:50:16
549,Noumea,NC,-22.2763,166.4572,91.38,99,10,13.82,clear sky,2021-11-16 01:50:17
550,Salihorsk,BY,52.7876,27.5415,28.08,86,11,7.0,few clouds,2021-11-16 01:50:17
551,Aitape,PG,-3.1374,142.3475,80.08,83,100,1.3,overcast clouds,2021-11-16 01:50:17
552,La Plata,AR,-34.9215,-57.9545,73.31,94,100,4.34,overcast clouds,2021-11-16 01:50:18
553,Talladega,US,33.4359,-86.1058,51.84,87,1,0.0,clear sky,2021-11-16 01:50:18
554,Takoradi,GH,4.8845,-1.7554,78.93,85,53,7.34,broken clouds,2021-11-16 01:50:19
555,Baiyin,CN,36.5583,104.2081,27.48,31,100,2.13,overcast clouds,2021-11-16 01:50:19
556,Dilla,ET,6.41,38.31,59.65,83,58,4.34,broken clouds,2021-11-16 01:50:20
557,Samarai,PG,-10.6167,150.6667,85.15,74,25,9.73,scattered clouds,2021-11-16 01:50:20
558,Rosetta,EG,31.4044,30.4164,71.42,77,55,7.34,broken clouds,2021-11-16 01:50:21
559,Isla Del Bosque,MX,22.7333,-105.85,76.62,72,100,6.98,overcast clouds,2021-11-16 01:50:21
560,Aquiraz,BR,-3.9014,-38.3911,85.21,64,76,15.01,broken clouds,2021-11-16 01:50:21
561,Waynesville,US,35.4887,-82.9887,43.88,54,80,3.0,broken clouds,2021-11-16 01:50:22
562,Patrocinio,BR,-18.9439,-46.9925,64.63,86,61,4.36,broken clouds,2021-11-16 01:50:22
563,Ahipara,NZ,-35.1667,173.1667,68.77,67,54,11.81,broken clouds,2021-11-16 01:50:22
564,Ugoofaaru,MV,5.6667,73.0,81.21,78,100,20.04,heavy intensity rain,2021-11-16 01:50:23
565,Uong Bi,VN,21.0333,106.7833,73.38,79,100,4.56,overcast clouds,2021-11-16 01:50:23
566,Bonthe,SL,7.5264,-12.505,78.4,81,27,3.0,scattered clouds,2021-11-16 01:50:24
567,Mandan,US,46.8267,-100.8896,44.04,93,1,10.36,clear sky,2021-11-16 01:50:25
568,Lesnoye,RU,58.2841,35.5158,28.81,67,100,11.48,overcast clouds,2021-11-16 01:50:25
569,Rawson,AR,-43.3002,-65.1023,50.45,53,0,7.43,clear sky,2021-11-16 01:50:26
570,Pavilosta,LV,56.8879,21.1859,37.31,88,100,10.54,overcast clouds,2021-11-16 01:50:26
571,Kununurra,AU,-15.7667,128.7333,94.98,15,99,12.66,overcast clouds,2021-11-16 01:50:27
572,Mistrato,CO,5.2973,-75.8832,65.79,99,100,1.63,overcast clouds,2021-11-16 01:50:27
573,Tabuk,PH,17.4189,121.4443,79.57,81,82,3.29,moderate rain,2021-11-16 01:50:28
574,Nemuro,JP,43.3236,145.575,43.23,61,5,11.99,clear sky,2021-11-16 01:50:28
575,Almaznyy,RU,48.0448,40.045,24.94,87,16,9.93,few clouds,2021-11-16 01:50:29
576,Abbeville,FR,50.1,1.8333,48.16,80,100,3.06,overcast clouds,2021-11-16 01:50:29
577,Blagoveshchenka,RU,52.8333,79.8667,19.08,93,96,4.34,overcast clouds,2021-11-16 01:50:30
578,Aksarka,RU,66.5606,67.7975,3.69,97,100,5.88,overcast clouds,2021-11-16 01:50:30
579,Taga,RO,46.95,24.05,30.29,86,4,2.66,clear sky,2021-11-16 01:50:31
580,Hella,NO,67.2,14.4333,46.54,76,75,18.41,shower rain,2021-11-16 01:50:31
581,Brunswick,US,41.2381,-81.8418,35.96,77,90,7.0,overcast clouds,2021-11-16 01:46:09
582,Ornskoldsvik,SE,63.2909,18.7153,36.55,80,99,11.5,overcast clouds,2021-11-16 01:50:32
583,Suluq,LY,31.6682,20.2521,63.77,78,0,6.78,clear sky,2021-11-16 01:50:32
584,Voyvozh,RU,62.892,54.9635,20.17,94,100,9.4,light snow,2021-11-16 01:50:33
585,Vermilion,US,40.1667,-87.7506,38.97,77,90,1.01,overcast clouds,2021-11-16 01:50:33
586,Pasni,PK,25.2631,63.471,71.38,33,27,8.7,scattered clouds,2021-11-16 01:50:33
587,Hami,CN,42.8,93.45,33.85,51,14,7.09,few clouds,2021-11-16 01:50:34
588,Khorixas,NA,-20.3667,14.9667,71.51,28,94,2.66,overcast clouds,2021-11-16 01:50:34
589,Sauk Rapids,US,45.5919,-94.1661,31.98,78,90,4.61,overcast clouds,2021-11-16 01:50:34
590,Lubango,AO,-14.9172,13.4925,61.32,83,100,2.1,light rain,2021-11-16 01:50:35
591,Zaozhuang,CN,34.8647,117.5542,56.84,45,3,7.14,clear sky,2021-11-16 01:50:35
592,Ndele,CF,8.4109,20.6473,72.54,70,8,3.8,clear sky,2021-11-16 01:50:36
593,Humaita,BR,-7.5061,-63.0208,77.11,89,95,1.36,overcast clouds,2021-11-16 01:50:36
594,Terme,TR,41.2092,36.9739,54.97,77,100,6.87,overcast clouds,2021-11-16 01:50:37
595,Suifenhe,CN,44.4,131.1667,32.67,46,0,10.98,clear sky,2021-11-16 01:50:37
596,Bambanglipuro,ID,-7.95,110.2833,79.52,81,100,2.21,overcast clouds,2021-11-16 01:50:38
597,Batagay,RU,67.6333,134.6333,-9.44,97,100,2.1,overcast clouds,2021-11-16 01:50:38
598,Espinosa,BR,-14.9261,-42.8192,67.89,83,97,8.1,overcast clouds,2021-11-16 01:50:38
599,Lasa,IT,46.6166,10.7002,40.03,85,100,0.49,overcast clouds,2021-11-16 01:50:39
600,Dusti,TJ,37.3481,68.664,36.32,50,4,5.08,clear sky,2021-11-16 01:50:39
601,Mokshan,RU,53.4365,44.6132,22.59,91,30,6.71,scattered clouds,2021-11-16 01:50:40
602,Pedasi,PA,7.5333,-80.0333,78.06,80,32,4.99,scattered clouds,2021-11-16 01:50:40
603,Inirida,CO,3.8653,-67.9239,76.87,87,100,1.45,overcast clouds,2021-11-16 01:50:40
604,Jalingo,NG,8.8833,11.3667,77.63,53,100,1.23,overcast clouds,2021-11-16 01:50:41
605,Ziparion,GR,36.875,27.2042,47.77,63,25,8.52,scattered clouds,2021-11-16 01:50:41
606,Behshahr,IR,36.6923,53.5526,52.18,73,100,7.0,overcast clouds,2021-11-16 01:50:41
607,Krasnovishersk,RU,60.4078,57.082,18.07,94,100,8.03,light snow,2021-11-16 01:50:42
608,Keningau,MY,5.3378,116.1602,81.05,71,90,1.59,overcast clouds,2021-11-16 01:50:42
609,Xichang,CN,27.8964,102.2634,55.42,73,65,2.62,broken clouds,2021-11-16 01:50:42
610,Phan Thiet,VN,10.9333,108.1,80.69,75,100,2.42,overcast clouds,2021-11-16 01:48:53
611,Fort-Shevchenko,KZ,44.5086,50.263,40.17,78,100,26.31,overcast clouds,2021-11-16 01:50:43
612,Kharan,PK,28.5833,65.4167,51.51,34,1,1.86,clear sky,2021-11-16 01:50:43
613,Moussoro,TD,13.6408,16.4901,79.99,12,86,10.45,overcast clouds,2021-11-16 01:50:43
614,San Rafael Del Sur,NI,11.8485,-86.4384,79.77,74,20,13.15,few clouds,2021-11-16 01:50:44
615,Santa Helena,BR,-2.2311,-45.3,74.07,93,86,2.06,overcast clouds,2021-11-16 01:50:44
616,Kaspiyskiy,RU,45.3929,47.3707,36.1,76,98,20.56,overcast clouds,2021-11-16 01:50:45
617,Tigil,RU,57.8,158.6667,29.05,97,100,2.62,snow,2021-11-16 01:50:45
618,Celendin,PE,-6.8703,-78.1517,57.16,84,100,1.01,light rain,2021-11-16 01:50:45
619,Marzuq,YE,14.4,46.4667,63.48,34,15,1.95,few clouds,2021-11-16 01:50:46
620,Ratnagiri,IN,16.9833,73.3,80.19,77,100,4.25,overcast clouds,2021-11-16 01:50:46
621,Reconquista,AR,-29.15,-59.65,74.86,75,0,2.3,clear sky,2021-11-16 01:50:47
622,Baiao,BR,-2.7906,-49.6717,74.59,96,100,1.81,overcast clouds,2021-11-16 01:50:47
623,Kholodnyy,RU,62.7167,147.95,1.17,97,88,3.47,overcast clouds,2021-11-16 01:50:47
624,Yantai,CN,37.5333,121.4,52.25,54,0,4.85,clear sky,2021-11-16 01:50:48
625,Narimanov,RU,46.6927,47.8498,33.71,73,94,19.6,overcast clouds,2021-11-16 01:50:49
626,Bermeo,ES,43.4209,-2.7215,53.71,84,100,7.43,overcast clouds,2021-11-16 01:50:49
627,Mahibadhoo,MV,3.7833,72.9667,82.11,78,70,18.19,broken clouds,2021-11-16 01:50:50
628,Nguruka,TZ,-5.1092,31.0419,68.38,83,91,3.27,light rain,2021-11-16 01:50:50
629,Potiskum,NG,11.7091,11.0694,75.92,19,100,6.55,overcast clouds,2021-11-16 01:50:51
630,Labuan,MY,5.2767,115.2417,84.56,74,20,1.99,few clouds,2021-11-16 01:50:51
631,Simao,CN,22.7886,100.9748,62.29,97,100,2.3,overcast clouds,2021-11-16 01:50:51
632,Pochutla,MX,15.7432,-96.4661,72.93,82,0,3.6,clear sky,2021-11-16 01:50:52
633,Bara,NG,10.3744,10.7288,74.35,26,100,4.23,overcast clouds,2021-11-16 01:50:52
634,Makhachkala,RU,42.9764,47.5024,37.38,80,100,25.93,overcast clouds,2021-11-16 01:50:52
635,Auki,SB,-8.7676,160.7034,82.22,76,92,1.03,overcast clouds,2021-11-16 01:50:53
636,Lincoln,US,40.8,-96.667,53.98,67,1,4.0,clear sky,2021-11-16 01:46:16
637,Hatillo,PR,18.4863,-66.8254,79.84,87,3,10.6,clear sky,2021-11-16 01:50:54
638,Aras,ES,42.5617,-2.356,46.06,81,90,8.05,overcast clouds,2021-11-16 01:50:54
639,Kazachinskoye,RU,57.6953,93.2761,24.1,94,100,8.01,light snow,2021-11-16 01:50:55
640,San Pedro,PH,14.35,121.0167,87.31,68,90,5.75,overcast clouds,2021-11-16 01:50:55
641,Chifeng,CN,42.2683,118.9636,35.19,54,0,3.87,clear sky,2021-11-16 01:50:55
642,Plettenberg Bay,ZA,-34.0527,23.3716,62.78,76,99,8.66,overcast clouds,2021-11-16 01:50:56
643,Varhaug,NO,58.6147,5.6457,50.49,89,100,12.12,overcast clouds,2021-11-16 01:50:56
644,Ziro,IN,27.6333,93.8333,41.74,64,7,2.59,clear sky,2021-11-16 01:50:57
645,Stephenville,US,32.2207,-98.2023,70.39,72,1,4.61,clear sky,2021-11-16 01:50:57
646,Kem,RU,64.9555,34.5793,34.97,97,100,17.38,light rain,2021-11-16 01:50:57
